[
  {
    "OBJECTID":223,
    "TOWN_ID":6300100,
    "TOWN_NAME":"松山區",
    "T_UID":63,
    "COUNTY_NAME":"台北市",
    "T_UID":223,
    "ALL":"台北市松山區",
    "lat":25.0552958,
    "lng":121.5541264
  },
  {
    "OBJECTID":224,
    "TOWN_ID":6300200,
    "TOWN_NAME":"信義區",
    "T_UID":63,
    "COUNTY_NAME":"台北市",
    "T_UID":224,
    "ALL":"台北市信義區",
    "lat":25.0287024,
    "lng":121.5769572
  },
  {
    "OBJECTID":225,
    "TOWN_ID":6300300,
    "TOWN_NAME":"大安區",
    "T_UID":63,
    "COUNTY_NAME":"台北市",
    "T_UID":225,
    "ALL":"台北市大安區",
    "lat":25.0261583,
    "lng":121.5427093
  },
  {
    "OBJECTID":226,
    "TOWN_ID":6300400,
    "TOWN_NAME":"中山區",
    "T_UID":63,
    "COUNTY_NAME":"台北市",
    "T_UID":226,
    "ALL":"台北市中山區",
    "lat":25.0792018,
    "lng":121.5427093
  },
  {
    "OBJECTID":227,
    "TOWN_ID":6300500,
    "TOWN_NAME":"中正區",
    "T_UID":63,
    "COUNTY_NAME":"台北市",
    "T_UID":227,
    "ALL":"台北市中正區",
    "lat":25.0421407,
    "lng":121.5198716
  },
  {
    "OBJECTID":228,
    "TOWN_ID":6300600,
    "TOWN_NAME":"大同區",
    "T_UID":63,
    "COUNTY_NAME":"台北市",
    "T_UID":228,
    "ALL":"台北市大同區",
    "lat":25.0627243,
    "lng":121.5113064
  },
  {
    "OBJECTID":229,
    "TOWN_ID":6300700,
    "TOWN_NAME":"萬華區",
    "T_UID":63,
    "COUNTY_NAME":"台北市",
    "T_UID":229,
    "ALL":"台北市萬華區",
    "lat":25.0262857,
    "lng":121.4970294
  },
  {
    "OBJECTID":23,
    "TOWN_ID":6800100,
    "TOWN_NAME":"桃園區",
    "T_UID":68,
    "COUNTY_NAME":"桃園市",
    "T_UID":23,
    "ALL":"桃園市桃園區",
    "lat":24.9934099,
    "lng":121.2969674
  },
  {
    "OBJECTID":230,
    "TOWN_ID":6300800,
    "TOWN_NAME":"文山區",
    "T_UID":63,
    "COUNTY_NAME":"台北市",
    "T_UID":230,
    "ALL":"台北市文山區",
    "lat":24.9929212,
    "lng":121.57125
  },
  {
    "OBJECTID":231,
    "TOWN_ID":6300900,
    "TOWN_NAME":"南港區",
    "T_UID":63,
    "COUNTY_NAME":"台北市",
    "T_UID":231,
    "ALL":"台北市南港區",
    "lat":25.0312347,
    "lng":121.6111949
  },
  {
    "OBJECTID":232,
    "TOWN_ID":6301000,
    "TOWN_NAME":"內湖區",
    "T_UID":63,
    "COUNTY_NAME":"台北市",
    "T_UID":232,
    "ALL":"台北市內湖區",
    "lat":25.0689422,
    "lng":121.5909027
  },
  {
    "OBJECTID":233,
    "TOWN_ID":6301100,
    "TOWN_NAME":"士林區",
    "T_UID":63,
    "COUNTY_NAME":"台北市",
    "T_UID":233,
    "ALL":"台北市士林區",
    "lat":25.0950492,
    "lng":121.5246077
  },
  {
    "OBJECTID":234,
    "TOWN_ID":6301200,
    "TOWN_NAME":"北投區",
    "T_UID":63,
    "COUNTY_NAME":"台北市",
    "T_UID":234,
    "ALL":"台北市北投區",
    "lat":25.1151759,
    "lng":121.515018
  },
  {
    "OBJECTID":235,
    "TOWN_ID":6400100,
    "TOWN_NAME":"鹽埕區",
    "T_UID":64,
    "COUNTY_NAME":"高雄市",
    "T_UID":235,
    "ALL":"高雄市鹽埕區",
    "lat":22.6224414,
    "lng":120.2830007
  },
  {
    "OBJECTID":236,
    "TOWN_ID":6400200,
    "TOWN_NAME":"鼓山區",
    "T_UID":64,
    "COUNTY_NAME":"高雄市",
    "T_UID":236,
    "ALL":"高雄市鼓山區",
    "lat":22.6495866,
    "lng":120.2685799
  },
  {
    "OBJECTID":237,
    "TOWN_ID":6400300,
    "TOWN_NAME":"左營區",
    "T_UID":64,
    "COUNTY_NAME":"高雄市",
    "T_UID":237,
    "ALL":"高雄市左營區",
    "lat":22.6877358,
    "lng":120.2916524
  },
  {
    "OBJECTID":238,
    "TOWN_ID":6400400,
    "TOWN_NAME":"楠梓區",
    "T_UID":64,
    "COUNTY_NAME":"高雄市",
    "T_UID":238,
    "ALL":"高雄市楠梓區",
    "lat":22.7175372,
    "lng":120.3031871
  },
  {
    "OBJECTID":239,
    "TOWN_ID":6400500,
    "TOWN_NAME":"三民區",
    "T_UID":64,
    "COUNTY_NAME":"高雄市",
    "T_UID":239,
    "ALL":"高雄市三民區",
    "lat":22.6483444,
    "lng":120.3262535
  },
  {
    "OBJECTID":24,
    "TOWN_ID":6800200,
    "TOWN_NAME":"中壢區",
    "T_UID":68,
    "COUNTY_NAME":"桃園市",
    "T_UID":24,
    "ALL":"桃園市中壢區",
    "lat":24.9721514,
    "lng":121.2053963
  },
  {
    "OBJECTID":240,
    "TOWN_ID":6400600,
    "TOWN_NAME":"新興區",
    "T_UID":64,
    "COUNTY_NAME":"高雄市",
    "T_UID":240,
    "ALL":"高雄市新興區",
    "lat":22.6283893,
    "lng":120.3060706
  },
  {
    "OBJECTID":241,
    "TOWN_ID":6400700,
    "TOWN_NAME":"前金區",
    "T_UID":64,
    "COUNTY_NAME":"高雄市",
    "T_UID":241,
    "ALL":"高雄市前金區",
    "lat":22.6254162,
    "lng":120.2945362
  },
  {
    "OBJECTID":242,
    "TOWN_ID":6400800,
    "TOWN_NAME":"苓雅區",
    "T_UID":64,
    "COUNTY_NAME":"高雄市",
    "T_UID":242,
    "ALL":"高雄市苓雅區",
    "lat":22.6268814,
    "lng":120.3262535
  },
  {
    "OBJECTID":243,
    "TOWN_ID":6400900,
    "TOWN_NAME":"前鎮區",
    "T_UID":64,
    "COUNTY_NAME":"高雄市",
    "T_UID":243,
    "ALL":"高雄市前鎮區",
    "lat":22.5970794,
    "lng":120.3147208
  },
  {
    "OBJECTID":244,
    "TOWN_ID":6401000,
    "TOWN_NAME":"旗津區",
    "T_UID":64,
    "COUNTY_NAME":"高雄市",
    "T_UID":244,
    "ALL":"高雄市旗津區",
    "lat":22.561674,
    "lng":120.306998
  },
  {
    "OBJECTID":245,
    "TOWN_ID":6401100,
    "TOWN_NAME":"小港區",
    "T_UID":64,
    "COUNTY_NAME":"高雄市",
    "T_UID":245,
    "ALL":"高雄市小港區",
    "lat":22.5553185,
    "lng":120.3608455
  },
  {
    "OBJECTID":246,
    "TOWN_ID":6401200,
    "TOWN_NAME":"鳳山區",
    "T_UID":64,
    "COUNTY_NAME":"高雄市",
    "T_UID":246,
    "ALL":"高雄市鳳山區",
    "lat":22.6113591,
    "lng":120.3493158
  },
  {
    "OBJECTID":247,
    "TOWN_ID":6401300,
    "TOWN_NAME":"林園區",
    "T_UID":64,
    "COUNTY_NAME":"高雄市",
    "T_UID":247,
    "ALL":"高雄市林園區",
    "lat":22.4986756,
    "lng":120.4011911
  },
  {
    "OBJECTID":248,
    "TOWN_ID":6401400,
    "TOWN_NAME":"大寮區",
    "T_UID":64,
    "COUNTY_NAME":"高雄市",
    "T_UID":248,
    "ALL":"高雄市大寮區",
    "lat":22.584481,
    "lng":120.4011911
  },
  {
    "OBJECTID":249,
    "TOWN_ID":6401500,
    "TOWN_NAME":"大樹區",
    "T_UID":64,
    "COUNTY_NAME":"高雄市",
    "T_UID":249,
    "ALL":"高雄市大樹區",
    "lat":22.708371,
    "lng":120.4242401
  },
  {
    "OBJECTID":25,
    "TOWN_ID":6800300,
    "TOWN_NAME":"大溪區",
    "T_UID":68,
    "COUNTY_NAME":"桃園市",
    "T_UID":25,
    "ALL":"桃園市大溪區",
    "lat":24.8658422,
    "lng":121.2969674
  },
  {
    "OBJECTID":250,
    "TOWN_ID":6401600,
    "TOWN_NAME":"大社區",
    "T_UID":64,
    "COUNTY_NAME":"高雄市",
    "T_UID":250,
    "ALL":"高雄市大社區",
    "lat":22.7377083,
    "lng":120.3608455
  },
  {
    "OBJECTID":251,
    "TOWN_ID":6401700,
    "TOWN_NAME":"仁武區",
    "T_UID":64,
    "COUNTY_NAME":"高雄市",
    "T_UID":251,
    "ALL":"高雄市仁武區",
    "lat":22.6947932,
    "lng":120.3608455
  },
  {
    "OBJECTID":252,
    "TOWN_ID":6401800,
    "TOWN_NAME":"鳥松區",
    "T_UID":64,
    "COUNTY_NAME":"高雄市",
    "T_UID":252,
    "ALL":"高雄市鳥松區",
    "lat":22.6602052,
    "lng":120.3723741
  },
  {
    "OBJECTID":253,
    "TOWN_ID":6401900,
    "TOWN_NAME":"岡山區",
    "T_UID":64,
    "COUNTY_NAME":"高雄市",
    "T_UID":253,
    "ALL":"高雄市岡山區",
    "lat":22.8016472,
    "lng":120.2858846
  },
  {
    "OBJECTID":254,
    "TOWN_ID":6402000,
    "TOWN_NAME":"橋頭區",
    "T_UID":64,
    "COUNTY_NAME":"高雄市",
    "T_UID":254,
    "ALL":"高雄市橋頭區",
    "lat":22.7539012,
    "lng":120.3089541
  },
  {
    "OBJECTID":255,
    "TOWN_ID":6402100,
    "TOWN_NAME":"燕巢區",
    "T_UID":64,
    "COUNTY_NAME":"高雄市",
    "T_UID":255,
    "ALL":"高雄市燕巢區",
    "lat":22.7823697,
    "lng":120.378138
  },
  {
    "OBJECTID":256,
    "TOWN_ID":6402200,
    "TOWN_NAME":"田寮區",
    "T_UID":64,
    "COUNTY_NAME":"高雄市",
    "T_UID":256,
    "ALL":"高雄市田寮區",
    "lat":22.8633474,
    "lng":120.4011911
  },
  {
    "OBJECTID":257,
    "TOWN_ID":6402300,
    "TOWN_NAME":"阿蓮區",
    "T_UID":64,
    "COUNTY_NAME":"高雄市",
    "T_UID":257,
    "ALL":"高雄市阿蓮區",
    "lat":22.8778606,
    "lng":120.3320195
  },
  {
    "OBJECTID":258,
    "TOWN_ID":6402400,
    "TOWN_NAME":"路竹區",
    "T_UID":64,
    "COUNTY_NAME":"高雄市",
    "T_UID":258,
    "ALL":"高雄市路竹區",
    "lat":22.8494042,
    "lng":120.2628111
  },
  {
    "OBJECTID":259,
    "TOWN_ID":6402500,
    "TOWN_NAME":"湖內區",
    "T_UID":64,
    "COUNTY_NAME":"高雄市",
    "T_UID":259,
    "ALL":"高雄市湖內區",
    "lat":22.8954184,
    "lng":120.2224227
  },
  {
    "OBJECTID":26,
    "TOWN_ID":6800400,
    "TOWN_NAME":"楊梅區",
    "T_UID":68,
    "COUNTY_NAME":"桃園市",
    "T_UID":26,
    "ALL":"桃園市楊梅區",
    "lat":24.9242108,
    "lng":121.1366715
  },
  {
    "OBJECTID":260,
    "TOWN_ID":6402600,
    "TOWN_NAME":"茄萣區",
    "T_UID":64,
    "COUNTY_NAME":"高雄市",
    "T_UID":260,
    "ALL":"高雄市茄萣區",
    "lat":22.8763476,
    "lng":120.2108809
  },
  {
    "OBJECTID":261,
    "TOWN_ID":6402700,
    "TOWN_NAME":"永安區",
    "T_UID":64,
    "COUNTY_NAME":"高雄市",
    "T_UID":261,
    "ALL":"高雄市永安區",
    "lat":22.8112691,
    "lng":120.2397336
  },
  {
    "OBJECTID":262,
    "TOWN_ID":6402800,
    "TOWN_NAME":"彌陀區",
    "T_UID":64,
    "COUNTY_NAME":"高雄市",
    "T_UID":262,
    "ALL":"高雄市彌陀區",
    "lat":22.7832231,
    "lng":120.2455033
  },
  {
    "OBJECTID":263,
    "TOWN_ID":6402900,
    "TOWN_NAME":"梓官區",
    "T_UID":64,
    "COUNTY_NAME":"高雄市",
    "T_UID":263,
    "ALL":"高雄市梓官區",
    "lat":22.7486104,
    "lng":120.2570421
  },
  {
    "OBJECTID":264,
    "TOWN_ID":6403000,
    "TOWN_NAME":"旗山區",
    "T_UID":64,
    "COUNTY_NAME":"高雄市",
    "T_UID":264,
    "ALL":"高雄市旗山區",
    "lat":22.8702492,
    "lng":120.4703258
  },
  {
    "OBJECTID":265,
    "TOWN_ID":6403100,
    "TOWN_NAME":"美濃區",
    "T_UID":64,
    "COUNTY_NAME":"高雄市",
    "T_UID":265,
    "ALL":"高雄市美濃區",
    "lat":22.885385,
    "lng":120.5509358
  },
  {
    "OBJECTID":266,
    "TOWN_ID":6403200,
    "TOWN_NAME":"六龜區",
    "T_UID":64,
    "COUNTY_NAME":"高雄市",
    "T_UID":266,
    "ALL":"高雄市六龜區",
    "lat":23.0026195,
    "lng":120.6545022
  },
  {
    "OBJECTID":267,
    "TOWN_ID":6403300,
    "TOWN_NAME":"甲仙區",
    "T_UID":64,
    "COUNTY_NAME":"高雄市",
    "T_UID":267,
    "ALL":"高雄市甲仙區",
    "lat":23.114592,
    "lng":120.6314948
  },
  {
    "OBJECTID":268,
    "TOWN_ID":6403400,
    "TOWN_NAME":"杉林區",
    "T_UID":64,
    "COUNTY_NAME":"高雄市",
    "T_UID":268,
    "ALL":"高雄市杉林區",
    "lat":23.0007902,
    "lng":120.5624474
  },
  {
    "OBJECTID":269,
    "TOWN_ID":6403500,
    "TOWN_NAME":"內門區",
    "T_UID":64,
    "COUNTY_NAME":"高雄市",
    "T_UID":269,
    "ALL":"高雄市內門區",
    "lat":22.9560087,
    "lng":120.4703258
  },
  {
    "OBJECTID":27,
    "TOWN_ID":6800500,
    "TOWN_NAME":"蘆竹區",
    "T_UID":68,
    "COUNTY_NAME":"桃園市",
    "T_UID":27,
    "ALL":"桃園市蘆竹區",
    "lat":25.0784359,
    "lng":121.2969674
  },
  {
    "OBJECTID":270,
    "TOWN_ID":6403600,
    "TOWN_NAME":"茂林區",
    "T_UID":64,
    "COUNTY_NAME":"高雄市",
    "T_UID":270,
    "ALL":"高雄市茂林區",
    "lat":22.9319405,
    "lng":120.734995
  },
  {
    "OBJECTID":271,
    "TOWN_ID":6403700,
    "TOWN_NAME":"桃源區",
    "T_UID":64,
    "COUNTY_NAME":"高雄市",
    "T_UID":271,
    "ALL":"高雄市桃源區",
    "lat":23.2280755,
    "lng":120.8498944
  },
  {
    "OBJECTID":272,
    "TOWN_ID":6403800,
    "TOWN_NAME":"那瑪夏區",
    "T_UID":64,
    "COUNTY_NAME":"高雄市",
    "T_UID":272,
    "ALL":"高雄市那瑪夏區",
    "lat":23.2742978,
    "lng":120.734995
  },
  {
    "OBJECTID":273,
    "TOWN_ID":6500100,
    "TOWN_NAME":"板橋區",
    "T_UID":65,
    "COUNTY_NAME":"新北市",
    "T_UID":273,
    "ALL":"新北市板橋區",
    "lat":25.0114095,
    "lng":121.4618415
  },
  {
    "OBJECTID":274,
    "TOWN_ID":6500200,
    "TOWN_NAME":"三重區",
    "T_UID":65,
    "COUNTY_NAME":"新北市",
    "T_UID":274,
    "ALL":"新北市三重區",
    "lat":25.0614534,
    "lng":121.4867114
  },
  {
    "OBJECTID":275,
    "TOWN_ID":6500300,
    "TOWN_NAME":"中和區",
    "T_UID":65,
    "COUNTY_NAME":"新北市",
    "T_UID":275,
    "ALL":"新北市中和區",
    "lat":24.9962178,
    "lng":121.4853103
  },
  {
    "OBJECTID":276,
    "TOWN_ID":6500400,
    "TOWN_NAME":"永和區",
    "T_UID":65,
    "COUNTY_NAME":"新北市",
    "T_UID":276,
    "ALL":"新北市永和區",
    "lat":25.0103251,
    "lng":121.5145353
  },
  {
    "OBJECTID":277,
    "TOWN_ID":6500500,
    "TOWN_NAME":"新莊區",
    "T_UID":65,
    "COUNTY_NAME":"新北市",
    "T_UID":277,
    "ALL":"新北市新莊區",
    "lat":25.0265985,
    "lng":121.4178347
  },
  {
    "OBJECTID":278,
    "TOWN_ID":6500600,
    "TOWN_NAME":"新店區",
    "T_UID":65,
    "COUNTY_NAME":"新北市",
    "T_UID":278,
    "ALL":"新北市新店區",
    "lat":24.978282,
    "lng":121.5394822
  },
  {
    "OBJECTID":279,
    "TOWN_ID":6500700,
    "TOWN_NAME":"樹林區",
    "T_UID":65,
    "COUNTY_NAME":"新北市",
    "T_UID":279,
    "ALL":"新北市樹林區",
    "lat":24.9815605,
    "lng":121.4198606
  },
  {
    "OBJECTID":28,
    "TOWN_ID":6800600,
    "TOWN_NAME":"大園區",
    "T_UID":68,
    "COUNTY_NAME":"桃園市",
    "T_UID":28,
    "ALL":"桃園市大園區",
    "lat":25.0492632,
    "lng":121.193945
  },
  {
    "OBJECTID":280,
    "TOWN_ID":6500800,
    "TOWN_NAME":"鶯歌區",
    "T_UID":65,
    "COUNTY_NAME":"新北市",
    "T_UID":280,
    "ALL":"新北市鶯歌區",
    "lat":24.9614967,
    "lng":121.3427262
  },
  {
    "OBJECTID":281,
    "TOWN_ID":6500900,
    "TOWN_NAME":"三峽區",
    "T_UID":65,
    "COUNTY_NAME":"新北市",
    "T_UID":281,
    "ALL":"新北市三峽區",
    "lat":24.9358605,
    "lng":121.3744903
  },
  {
    "OBJECTID":282,
    "TOWN_ID":6501000,
    "TOWN_NAME":"淡水區",
    "T_UID":65,
    "COUNTY_NAME":"新北市",
    "T_UID":282,
    "ALL":"新北市淡水區",
    "lat":25.1719805,
    "lng":121.4433706
  },
  {
    "OBJECTID":283,
    "TOWN_ID":6501100,
    "TOWN_NAME":"汐止區",
    "T_UID":65,
    "COUNTY_NAME":"新北市",
    "T_UID":283,
    "ALL":"新北市汐止區",
    "lat":25.0616059,
    "lng":121.6397184
  },
  {
    "OBJECTID":284,
    "TOWN_ID":6501200,
    "TOWN_NAME":"瑞芳區",
    "T_UID":65,
    "COUNTY_NAME":"新北市",
    "T_UID":284,
    "ALL":"新北市瑞芳區",
    "lat":25.103052,
    "lng":121.822098
  },
  {
    "OBJECTID":285,
    "TOWN_ID":6501300,
    "TOWN_NAME":"土城區",
    "T_UID":65,
    "COUNTY_NAME":"新北市",
    "T_UID":285,
    "ALL":"新北市土城區",
    "lat":24.968371,
    "lng":121.438034
  },
  {
    "OBJECTID":286,
    "TOWN_ID":6501400,
    "TOWN_NAME":"蘆洲區",
    "T_UID":65,
    "COUNTY_NAME":"新北市",
    "T_UID":286,
    "ALL":"新北市蘆洲區",
    "lat":25.0868908,
    "lng":121.4715241
  },
  {
    "OBJECTID":287,
    "TOWN_ID":6501500,
    "TOWN_NAME":"五股區",
    "T_UID":65,
    "COUNTY_NAME":"新北市",
    "T_UID":287,
    "ALL":"新北市五股區",
    "lat":25.0848317,
    "lng":121.4386586
  },
  {
    "OBJECTID":288,
    "TOWN_ID":6501600,
    "TOWN_NAME":"泰山區",
    "T_UID":65,
    "COUNTY_NAME":"新北市",
    "T_UID":288,
    "ALL":"新北市泰山區",
    "lat":25.0581641,
    "lng":121.4327919
  },
  {
    "OBJECTID":289,
    "TOWN_ID":6501700,
    "TOWN_NAME":"林口區",
    "T_UID":65,
    "COUNTY_NAME":"新北市",
    "T_UID":289,
    "ALL":"新北市林口區",
    "lat":25.0790108,
    "lng":121.3881378
  },
  {
    "OBJECTID":29,
    "TOWN_ID":6800700,
    "TOWN_NAME":"龜山區",
    "T_UID":68,
    "COUNTY_NAME":"桃園市",
    "T_UID":29,
    "ALL":"桃園市龜山區",
    "lat":25.0199092,
    "lng":121.3655989
  },
  {
    "OBJECTID":290,
    "TOWN_ID":6501800,
    "TOWN_NAME":"深坑區",
    "T_UID":65,
    "COUNTY_NAME":"新北市",
    "T_UID":290,
    "ALL":"新北市深坑區",
    "lat":25.0033792,
    "lng":121.6169002
  },
  {
    "OBJECTID":291,
    "TOWN_ID":6501900,
    "TOWN_NAME":"石碇區",
    "T_UID":65,
    "COUNTY_NAME":"新北市",
    "T_UID":291,
    "ALL":"新北市石碇區",
    "lat":25.0098662,
    "lng":121.6452827
  },
  {
    "OBJECTID":292,
    "TOWN_ID":6502000,
    "TOWN_NAME":"坪林區",
    "T_UID":65,
    "COUNTY_NAME":"新北市",
    "T_UID":292,
    "ALL":"新北市坪林區",
    "lat":24.9350844,
    "lng":121.7107613
  },
  {
    "OBJECTID":293,
    "TOWN_ID":6502100,
    "TOWN_NAME":"三芝區",
    "T_UID":65,
    "COUNTY_NAME":"新北市",
    "T_UID":293,
    "ALL":"新北市三芝區",
    "lat":25.2593452,
    "lng":121.5024341
  },
  {
    "OBJECTID":294,
    "TOWN_ID":6502200,
    "TOWN_NAME":"石門區",
    "T_UID":65,
    "COUNTY_NAME":"新北市",
    "T_UID":294,
    "ALL":"新北市石門區",
    "lat":25.2908277,
    "lng":121.5671383
  },
  {
    "OBJECTID":295,
    "TOWN_ID":6502300,
    "TOWN_NAME":"八里區",
    "T_UID":65,
    "COUNTY_NAME":"新北市",
    "T_UID":295,
    "ALL":"新北市八里區",
    "lat":25.1443896,
    "lng":121.3983016
  },
  {
    "OBJECTID":296,
    "TOWN_ID":6502400,
    "TOWN_NAME":"平溪區",
    "T_UID":65,
    "COUNTY_NAME":"新北市",
    "T_UID":296,
    "ALL":"新北市平溪區",
    "lat":25.0248314,
    "lng":121.7408654
  },
  {
    "OBJECTID":297,
    "TOWN_ID":6502500,
    "TOWN_NAME":"雙溪區",
    "T_UID":65,
    "COUNTY_NAME":"新北市",
    "T_UID":297,
    "ALL":"新北市雙溪區",
    "lat":24.9971842,
    "lng":121.822098
  },
  {
    "OBJECTID":298,
    "TOWN_ID":6502600,
    "TOWN_NAME":"貢寮區",
    "T_UID":65,
    "COUNTY_NAME":"新北市",
    "T_UID":298,
    "ALL":"新北市貢寮區",
    "lat":25.0168762,
    "lng":121.9459786
  },
  {
    "OBJECTID":299,
    "TOWN_ID":6502700,
    "TOWN_NAME":"金山區",
    "T_UID":65,
    "COUNTY_NAME":"新北市",
    "T_UID":299,
    "ALL":"新北市金山區",
    "lat":25.22508,
    "lng":121.638625
  },
  {
    "OBJECTID":30,
    "TOWN_ID":6800800,
    "TOWN_NAME":"八德區",
    "T_UID":68,
    "COUNTY_NAME":"桃園市",
    "T_UID":30,
    "ALL":"桃園市八德區",
    "lat":24.9469059,
    "lng":121.2912463
  },
  {
    "OBJECTID":300,
    "TOWN_ID":6502800,
    "TOWN_NAME":"萬里區",
    "T_UID":65,
    "COUNTY_NAME":"新北市",
    "T_UID":300,
    "ALL":"新北市萬里區",
    "lat":25.1676024,
    "lng":121.6397184
  },
  {
    "OBJECTID":301,
    "TOWN_ID":6502900,
    "TOWN_NAME":"烏來區",
    "T_UID":65,
    "COUNTY_NAME":"新北市",
    "T_UID":301,
    "ALL":"新北市烏來區",
    "lat":24.8663721,
    "lng":121.5497801
  },
  {
    "OBJECTID":302,
    "TOWN_ID":6600100,
    "TOWN_NAME":"中區",
    "T_UID":66,
    "COUNTY_NAME":"台中市",
    "T_UID":302,
    "ALL":"台中市中區",
    "lat":24.1402601,
    "lng":120.6818181
  },
  {
    "OBJECTID":303,
    "TOWN_ID":6600200,
    "TOWN_NAME":"東區",
    "T_UID":66,
    "COUNTY_NAME":"台中市",
    "T_UID":303,
    "ALL":"台中市東區",
    "lat":24.1427702,
    "lng":120.6944233
  },
  {
    "OBJECTID":304,
    "TOWN_ID":6600300,
    "TOWN_NAME":"南區",
    "T_UID":66,
    "COUNTY_NAME":"台中市",
    "T_UID":304,
    "ALL":"台中市南區",
    "lat":24.1208445,
    "lng":120.6624117
  },
  {
    "OBJECTID":305,
    "TOWN_ID":6600400,
    "TOWN_NAME":"西區",
    "T_UID":66,
    "COUNTY_NAME":"台中市",
    "T_UID":305,
    "ALL":"台中市西區",
    "lat":24.1430604,
    "lng":120.6631289
  },
  {
    "OBJECTID":306,
    "TOWN_ID":6600500,
    "TOWN_NAME":"北區",
    "T_UID":66,
    "COUNTY_NAME":"台中市",
    "T_UID":306,
    "ALL":"台中市北區",
    "lat":24.1629451,
    "lng":120.674583
  },
  {
    "OBJECTID":307,
    "TOWN_ID":6600600,
    "TOWN_NAME":"西屯區",
    "T_UID":66,
    "COUNTY_NAME":"台中市",
    "T_UID":307,
    "ALL":"台中市西屯區",
    "lat":24.1769764,
    "lng":120.6424333
  },
  {
    "OBJECTID":308,
    "TOWN_ID":6600700,
    "TOWN_NAME":"南屯區",
    "T_UID":66,
    "COUNTY_NAME":"台中市",
    "T_UID":308,
    "ALL":"台中市南屯區",
    "lat":24.1471183,
    "lng":120.6084832
  },
  {
    "OBJECTID":309,
    "TOWN_ID":6600800,
    "TOWN_NAME":"北屯區",
    "T_UID":66,
    "COUNTY_NAME":"台中市",
    "T_UID":309,
    "ALL":"台中市北屯區",
    "lat":24.1815237,
    "lng":120.6861019
  },
  {
    "OBJECTID":31,
    "TOWN_ID":6800900,
    "TOWN_NAME":"龍潭區",
    "T_UID":68,
    "COUNTY_NAME":"桃園市",
    "T_UID":31,
    "ALL":"桃園市龍潭區",
    "lat":24.8444927,
    "lng":121.2053963
  },
  {
    "OBJECTID":310,
    "TOWN_ID":6600900,
    "TOWN_NAME":"豐原區",
    "T_UID":66,
    "COUNTY_NAME":"台中市",
    "T_UID":310,
    "ALL":"台中市豐原區",
    "lat":24.2521156,
    "lng":120.7223572
  },
  {
    "OBJECTID":311,
    "TOWN_ID":6601000,
    "TOWN_NAME":"東勢區",
    "T_UID":66,
    "COUNTY_NAME":"台中市",
    "T_UID":311,
    "ALL":"台中市東勢區",
    "lat":24.2599898,
    "lng":120.8272085
  },
  {
    "OBJECTID":312,
    "TOWN_ID":6601100,
    "TOWN_NAME":"大甲區",
    "T_UID":66,
    "COUNTY_NAME":"台中市",
    "T_UID":312,
    "ALL":"台中市大甲區",
    "lat":24.3788233,
    "lng":120.6487508
  },
  {
    "OBJECTID":313,
    "TOWN_ID":6601200,
    "TOWN_NAME":"清水區",
    "T_UID":66,
    "COUNTY_NAME":"台中市",
    "T_UID":313,
    "ALL":"台中市清水區",
    "lat":24.301983,
    "lng":120.5854674
  },
  {
    "OBJECTID":314,
    "TOWN_ID":6601300,
    "TOWN_NAME":"沙鹿區",
    "T_UID":66,
    "COUNTY_NAME":"台中市",
    "T_UID":314,
    "ALL":"台中市沙鹿區",
    "lat":24.2377939,
    "lng":120.5854674
  },
  {
    "OBJECTID":315,
    "TOWN_ID":6601500,
    "TOWN_NAME":"后里區",
    "T_UID":66,
    "COUNTY_NAME":"台中市",
    "T_UID":315,
    "ALL":"台中市后里區",
    "lat":24.3088765,
    "lng":120.7223705
  },
  {
    "OBJECTID":316,
    "TOWN_ID":6601600,
    "TOWN_NAME":"神岡區",
    "T_UID":66,
    "COUNTY_NAME":"台中市",
    "T_UID":316,
    "ALL":"台中市神岡區",
    "lat":24.2466151,
    "lng":120.6830982
  },
  {
    "OBJECTID":317,
    "TOWN_ID":6601700,
    "TOWN_NAME":"潭子區",
    "T_UID":66,
    "COUNTY_NAME":"台中市",
    "T_UID":317,
    "ALL":"台中市潭子區",
    "lat":24.2163612,
    "lng":120.7062535
  },
  {
    "OBJECTID":318,
    "TOWN_ID":6601800,
    "TOWN_NAME":"大雅區",
    "T_UID":66,
    "COUNTY_NAME":"台中市",
    "T_UID":318,
    "ALL":"台中市大雅區",
    "lat":24.2225023,
    "lng":120.6545022
  },
  {
    "OBJECTID":319,
    "TOWN_ID":6601900,
    "TOWN_NAME":"新社區",
    "T_UID":66,
    "COUNTY_NAME":"台中市",
    "T_UID":319,
    "ALL":"台中市新社區",
    "lat":24.1867194,
    "lng":120.8154358
  },
  {
    "OBJECTID":32,
    "TOWN_ID":6801000,
    "TOWN_NAME":"平鎮區",
    "T_UID":68,
    "COUNTY_NAME":"桃園市",
    "T_UID":32,
    "ALL":"桃園市平鎮區",
    "lat":24.9296022,
    "lng":121.2053963
  },
  {
    "OBJECTID":320,
    "TOWN_ID":6602000,
    "TOWN_NAME":"石岡區",
    "T_UID":66,
    "COUNTY_NAME":"台中市",
    "T_UID":320,
    "ALL":"台中市石岡區",
    "lat":24.2742426,
    "lng":120.7771553
  },
  {
    "OBJECTID":321,
    "TOWN_ID":6602100,
    "TOWN_NAME":"外埔區",
    "T_UID":66,
    "COUNTY_NAME":"台中市",
    "T_UID":321,
    "ALL":"台中市外埔區",
    "lat":24.3317733,
    "lng":120.6533224
  },
  {
    "OBJECTID":322,
    "TOWN_ID":6602200,
    "TOWN_NAME":"大安區",
    "T_UID":66,
    "COUNTY_NAME":"台中市",
    "T_UID":322,
    "ALL":"台中市大安區",
    "lat":24.3702355,
    "lng":120.5912217
  },
  {
    "OBJECTID":323,
    "TOWN_ID":6602300,
    "TOWN_NAME":"烏日區",
    "T_UID":66,
    "COUNTY_NAME":"台中市",
    "T_UID":323,
    "ALL":"台中市烏日區",
    "lat":24.107787,
    "lng":120.6380936
  },
  {
    "OBJECTID":324,
    "TOWN_ID":6602400,
    "TOWN_NAME":"大肚區",
    "T_UID":66,
    "COUNTY_NAME":"台中市",
    "T_UID":324,
    "ALL":"台中市大肚區",
    "lat":24.1358732,
    "lng":120.5624474
  },
  {
    "OBJECTID":325,
    "TOWN_ID":6602500,
    "TOWN_NAME":"龍井區",
    "T_UID":66,
    "COUNTY_NAME":"台中市",
    "T_UID":325,
    "ALL":"台中市龍井區",
    "lat":24.2102428,
    "lng":120.5163949
  },
  {
    "OBJECTID":326,
    "TOWN_ID":6602600,
    "TOWN_NAME":"霧峰區",
    "T_UID":66,
    "COUNTY_NAME":"台中市",
    "T_UID":326,
    "ALL":"台中市霧峰區",
    "lat":24.0442951,
    "lng":120.734995
  },
  {
    "OBJECTID":327,
    "TOWN_ID":6602700,
    "TOWN_NAME":"太平區",
    "T_UID":66,
    "COUNTY_NAME":"台中市",
    "T_UID":327,
    "ALL":"台中市太平區",
    "lat":24.1240719,
    "lng":120.7170701
  },
  {
    "OBJECTID":328,
    "TOWN_ID":6602800,
    "TOWN_NAME":"大里區",
    "T_UID":66,
    "COUNTY_NAME":"台中市",
    "T_UID":328,
    "ALL":"台中市大里區",
    "lat":24.1046899,
    "lng":120.6812114
  },
  {
    "OBJECTID":329,
    "TOWN_ID":6602900,
    "TOWN_NAME":"和平區",
    "T_UID":66,
    "COUNTY_NAME":"台中市",
    "T_UID":329,
    "ALL":"台中市和平區",
    "lat":24.3207261,
    "lng":121.3084088
  },
  {
    "OBJECTID":33,
    "TOWN_ID":6801100,
    "TOWN_NAME":"新屋區",
    "T_UID":68,
    "COUNTY_NAME":"桃園市",
    "T_UID":33,
    "ALL":"桃園市新屋區",
    "lat":24.9826597,
    "lng":121.067907
  },
  {
    "OBJECTID":330,
    "TOWN_ID":6700100,
    "TOWN_NAME":"新營區",
    "T_UID":67,
    "COUNTY_NAME":"台南市",
    "T_UID":330,
    "ALL":"台南市新營區",
    "lat":23.3119567,
    "lng":120.3089541
  },
  {
    "OBJECTID":331,
    "TOWN_ID":6700200,
    "TOWN_NAME":"鹽水區",
    "T_UID":67,
    "COUNTY_NAME":"台南市",
    "T_UID":331,
    "ALL":"台南市鹽水區",
    "lat":23.2622306,
    "lng":120.2397336
  },
  {
    "OBJECTID":332,
    "TOWN_ID":6700300,
    "TOWN_NAME":"白河區",
    "T_UID":67,
    "COUNTY_NAME":"台南市",
    "T_UID":332,
    "ALL":"台南市白河區",
    "lat":23.3336369,
    "lng":120.4588059
  },
  {
    "OBJECTID":333,
    "TOWN_ID":6700400,
    "TOWN_NAME":"柳營區",
    "T_UID":67,
    "COUNTY_NAME":"台南市",
    "T_UID":333,
    "ALL":"台南市柳營區",
    "lat":23.2806957,
    "lng":120.3550808
  },
  {
    "OBJECTID":334,
    "TOWN_ID":6700500,
    "TOWN_NAME":"後壁區",
    "T_UID":67,
    "COUNTY_NAME":"台南市",
    "T_UID":334,
    "ALL":"台南市後壁區",
    "lat":23.3665101,
    "lng":120.3550808
  },
  {
    "OBJECTID":335,
    "TOWN_ID":6700600,
    "TOWN_NAME":"東山區",
    "T_UID":67,
    "COUNTY_NAME":"台南市",
    "T_UID":335,
    "ALL":"台南市東山區",
    "lat":23.2825014,
    "lng":120.447285
  },
  {
    "OBJECTID":336,
    "TOWN_ID":6700700,
    "TOWN_NAME":"麻豆區",
    "T_UID":67,
    "COUNTY_NAME":"台南市",
    "T_UID":336,
    "ALL":"台南市麻豆區",
    "lat":23.1763401,
    "lng":120.2397336
  },
  {
    "OBJECTID":337,
    "TOWN_ID":6700800,
    "TOWN_NAME":"下營區",
    "T_UID":67,
    "COUNTY_NAME":"台南市",
    "T_UID":337,
    "ALL":"台南市下營區",
    "lat":23.2292915,
    "lng":120.2685799
  },
  {
    "OBJECTID":338,
    "TOWN_ID":6700900,
    "TOWN_NAME":"六甲區",
    "T_UID":67,
    "COUNTY_NAME":"台南市",
    "T_UID":338,
    "ALL":"台南市六甲區",
    "lat":23.2426813,
    "lng":120.3320195
  },
  {
    "OBJECTID":339,
    "TOWN_ID":6701000,
    "TOWN_NAME":"官田區",
    "T_UID":67,
    "COUNTY_NAME":"台南市",
    "T_UID":339,
    "ALL":"台南市官田區",
    "lat":23.1948768,
    "lng":120.3550808
  },
  {
    "OBJECTID":34,
    "TOWN_ID":6801200,
    "TOWN_NAME":"觀音區",
    "T_UID":68,
    "COUNTY_NAME":"桃園市",
    "T_UID":34,
    "ALL":"桃園市觀音區",
    "lat":25.0359365,
    "lng":121.1137544
  },
  {
    "OBJECTID":340,
    "TOWN_ID":6701100,
    "TOWN_NAME":"大內區",
    "T_UID":67,
    "COUNTY_NAME":"台南市",
    "T_UID":340,
    "ALL":"台南市大內區",
    "lat":23.1421962,
    "lng":120.4011911
  },
  {
    "OBJECTID":341,
    "TOWN_ID":6701200,
    "TOWN_NAME":"佳里區",
    "T_UID":67,
    "COUNTY_NAME":"台南市",
    "T_UID":341,
    "ALL":"台南市佳里區",
    "lat":23.1694465,
    "lng":120.1704766
  },
  {
    "OBJECTID":342,
    "TOWN_ID":6701300,
    "TOWN_NAME":"學甲區",
    "T_UID":67,
    "COUNTY_NAME":"台南市",
    "T_UID":342,
    "ALL":"台南市學甲區",
    "lat":23.2553798,
    "lng":120.1704766
  },
  {
    "OBJECTID":343,
    "TOWN_ID":6701400,
    "TOWN_NAME":"西港區",
    "T_UID":67,
    "COUNTY_NAME":"台南市",
    "T_UID":343,
    "ALL":"台南市西港區",
    "lat":23.1257853,
    "lng":120.1993381
  },
  {
    "OBJECTID":344,
    "TOWN_ID":6701500,
    "TOWN_NAME":"七股區",
    "T_UID":67,
    "COUNTY_NAME":"台南市",
    "T_UID":344,
    "ALL":"台南市七股區",
    "lat":23.1195166,
    "lng":120.1011836
  },
  {
    "OBJECTID":345,
    "TOWN_ID":6701600,
    "TOWN_NAME":"將軍區",
    "T_UID":67,
    "COUNTY_NAME":"台南市",
    "T_UID":345,
    "ALL":"台南市將軍區",
    "lat":23.216876,
    "lng":120.137211
  },
  {
    "OBJECTID":346,
    "TOWN_ID":6701700,
    "TOWN_NAME":"北門區",
    "T_UID":67,
    "COUNTY_NAME":"台南市",
    "T_UID":346,
    "ALL":"台南市北門區",
    "lat":23.2866026,
    "lng":120.1242853
  },
  {
    "OBJECTID":347,
    "TOWN_ID":6701800,
    "TOWN_NAME":"新化區",
    "T_UID":67,
    "COUNTY_NAME":"台南市",
    "T_UID":347,
    "ALL":"台南市新化區",
    "lat":23.0280873,
    "lng":120.3320195
  },
  {
    "OBJECTID":348,
    "TOWN_ID":6701900,
    "TOWN_NAME":"善化區",
    "T_UID":67,
    "COUNTY_NAME":"台南市",
    "T_UID":348,
    "ALL":"台南市善化區",
    "lat":23.1402613,
    "lng":120.3089541
  },
  {
    "OBJECTID":349,
    "TOWN_ID":6702000,
    "TOWN_NAME":"新市區",
    "T_UID":67,
    "COUNTY_NAME":"台南市",
    "T_UID":349,
    "ALL":"台南市新市區",
    "lat":23.0807324,
    "lng":120.2858846
  },
  {
    "OBJECTID":35,
    "TOWN_ID":6801300,
    "TOWN_NAME":"復興區",
    "T_UID":68,
    "COUNTY_NAME":"桃園市",
    "T_UID":35,
    "ALL":"桃園市復興區",
    "lat":24.709089,
    "lng":121.3770336
  },
  {
    "OBJECTID":350,
    "TOWN_ID":6702100,
    "TOWN_NAME":"安定區",
    "T_UID":67,
    "COUNTY_NAME":"台南市",
    "T_UID":350,
    "ALL":"台南市安定區",
    "lat":23.095298,
    "lng":120.2166519
  },
  {
    "OBJECTID":351,
    "TOWN_ID":6702200,
    "TOWN_NAME":"山上區",
    "T_UID":67,
    "COUNTY_NAME":"台南市",
    "T_UID":351,
    "ALL":"台南市山上區",
    "lat":23.0893067,
    "lng":120.3723741
  },
  {
    "OBJECTID":352,
    "TOWN_ID":6702300,
    "TOWN_NAME":"玉井區",
    "T_UID":67,
    "COUNTY_NAME":"台南市",
    "T_UID":352,
    "ALL":"台南市玉井區",
    "lat":23.1060822,
    "lng":120.4703258
  },
  {
    "OBJECTID":353,
    "TOWN_ID":6702400,
    "TOWN_NAME":"楠西區",
    "T_UID":67,
    "COUNTY_NAME":"台南市",
    "T_UID":353,
    "ALL":"台南市楠西區",
    "lat":23.1820152,
    "lng":120.5163949
  },
  {
    "OBJECTID":354,
    "TOWN_ID":6702500,
    "TOWN_NAME":"南化區",
    "T_UID":67,
    "COUNTY_NAME":"台南市",
    "T_UID":354,
    "ALL":"台南市南化區",
    "lat":23.1079133,
    "lng":120.5624474
  },
  {
    "OBJECTID":355,
    "TOWN_ID":6702600,
    "TOWN_NAME":"左鎮區",
    "T_UID":67,
    "COUNTY_NAME":"台南市",
    "T_UID":355,
    "ALL":"台南市左鎮區",
    "lat":23.0300785,
    "lng":120.4242401
  },
  {
    "OBJECTID":356,
    "TOWN_ID":6702700,
    "TOWN_NAME":"仁德區",
    "T_UID":67,
    "COUNTY_NAME":"台南市",
    "T_UID":356,
    "ALL":"台南市仁德區",
    "lat":22.9401228,
    "lng":120.2397336
  },
  {
    "OBJECTID":357,
    "TOWN_ID":6702800,
    "TOWN_NAME":"歸仁區",
    "T_UID":67,
    "COUNTY_NAME":"台南市",
    "T_UID":357,
    "ALL":"台南市歸仁區",
    "lat":22.9519268,
    "lng":120.2858846
  },
  {
    "OBJECTID":358,
    "TOWN_ID":6702900,
    "TOWN_NAME":"關廟區",
    "T_UID":67,
    "COUNTY_NAME":"台南市",
    "T_UID":358,
    "ALL":"台南市關廟區",
    "lat":22.9637053,
    "lng":120.3320195
  },
  {
    "OBJECTID":359,
    "TOWN_ID":6703000,
    "TOWN_NAME":"龍崎區",
    "T_UID":67,
    "COUNTY_NAME":"台南市",
    "T_UID":359,
    "ALL":"台南市龍崎區",
    "lat":22.9540045,
    "lng":120.378138
  },
  {
    "OBJECTID":360,
    "TOWN_ID":6703100,
    "TOWN_NAME":"永康區",
    "T_UID":67,
    "COUNTY_NAME":"台南市",
    "T_UID":360,
    "ALL":"台南市永康區",
    "lat":23.0211779,
    "lng":120.2628111
  },
  {
    "OBJECTID":361,
    "TOWN_ID":6703200,
    "TOWN_NAME":"東區",
    "T_UID":67,
    "COUNTY_NAME":"台南市",
    "T_UID":361,
    "ALL":"台南市東區",
    "lat":22.98133,
    "lng":120.2224227
  },
  {
    "OBJECTID":362,
    "TOWN_ID":6703300,
    "TOWN_NAME":"南區",
    "T_UID":67,
    "COUNTY_NAME":"台南市",
    "T_UID":362,
    "ALL":"台南市南區",
    "lat":22.9563522,
    "lng":120.1877943
  },
  {
    "OBJECTID":363,
    "TOWN_ID":6703400,
    "TOWN_NAME":"北區",
    "T_UID":67,
    "COUNTY_NAME":"台南市",
    "T_UID":363,
    "ALL":"台南市北區",
    "lat":23.008515,
    "lng":120.2079953
  },
  {
    "OBJECTID":364,
    "TOWN_ID":6703500,
    "TOWN_NAME":"安南區",
    "T_UID":67,
    "COUNTY_NAME":"台南市",
    "T_UID":364,
    "ALL":"台南市安南區",
    "lat":23.0585336,
    "lng":120.1358346
  },
  {
    "OBJECTID":365,
    "TOWN_ID":6703600,
    "TOWN_NAME":"安平區",
    "T_UID":67,
    "COUNTY_NAME":"台南市",
    "T_UID":365,
    "ALL":"台南市安平區",
    "lat":22.9934043,
    "lng":120.1647036
  },
  {
    "OBJECTID":366,
    "TOWN_ID":6703700,
    "TOWN_NAME":"中西區",
    "T_UID":67,
    "COUNTY_NAME":"台南市",
    "T_UID":366,
    "ALL":"台南市中西區",
    "lat":22.9948212,
    "lng":120.1964522
  },
  {
    "OBJECTID":367,
    "TOWN_ID":6601400,
    "TOWN_NAME":"梧棲區",
    "T_UID":66,
    "COUNTY_NAME":"台中市",
    "T_UID":367,
    "ALL":"台中市梧棲區",
    "lat":24.2479737,
    "lng":120.5394232
  }
]
